{"address":"10913 Bailey Rd","attributes":{"BikeParking":"True","BusinessAcceptsCreditCards":"True","BusinessParking":"{'garage': False, 'street': False, 'validated': False, 'lot': True, 'valet': False}","ByAppointmentOnly":"False","GoodForKids":"False","RestaurantsPriceRange2":"3"},"business_id":"f9NumwFMBDn751xgFiRbNA","categories":"Active Life, Gun/Rifle Ranges, Guns & Ammo, Shopping","city":"Cornelius","hours":{"Friday":"11:0-20:0","Monday":"10:0-18:0","Saturday":"11:0-20:0","Sunday":"13:0-18:0","Thursday":"11:0-20:0","Tuesday":"11:0-20:0","Wednesday":"10:0-18:0"},"is_open":1,"latitude":35.4627242,"longitude":-80.8526119,"name":"The Range At Lake Norman","postal_code":"28031","review_count":36,"stars":3.5,"state":"NC"}
{"address":"8880 E Via Linda, Ste 107","attributes":{"ByAppointmentOnly":"True","GoodForKids":"True"},"business_id":"Yzvjg0SayhoZgCljUJRF9Q","categories":"Health & Medical, Fitness & Instruction, Yoga, Active Life, Pilates","city":"Scottsdale","is_open":1,"latitude":33.5694041,"longitude":-111.8902637,"name":"Carlos Santo, NMD","postal_code":"85258","review_count":4,"stars":5.0,"state":"AZ"}
{"address":"3554 Rue Notre-Dame O","business_id":"XNoUzKckATkOD1hP6vghZg","categories":"Pets, Pet Services, Pet Groomers","city":"Montreal","is_open":1,"latitude":45.479984,"longitude":-73.58007,"name":"Felinus","postal_code":"H4C 1P4","review_count":5,"stars":5.0,"state":"QC"}
{"address":"1015 Sharp Cir","attributes":{"BikeParking":"True","BusinessAcceptsCreditCards":"True","BusinessParking":"{'garage': False, 'street': False, 'validated': False, 'lot': True, 'valet': False}","ByAppointmentOnly":"False","DogsAllowed":"True","RestaurantsPriceRange2":"4"},"business_id":"6OAZjbxqM5ol29BuHsil3w","categories":"Hardware Stores, Home Services, Building Supplies, Home & Garden, Shopping","city":"North Las Vegas","hours":{"Friday":"7:0-16:0","Monday":"7:0-16:0","Thursday":"7:0-16:0","Tuesday":"7:0-16:0","Wednesday":"7:0-16:0"},"is_open":0,"latitude":36.2197281,"longitude":-115.1277255,"name":"Nevada House of Hose","postal_code":"89030","review_count":3,"stars":2.5,"state":"NV"}
{"address":"4827 E Downing Cir","attributes":{"BusinessAcceptsCreditCards":"True","ByAppointmentOnly":"True"},"business_id":"51M2Kk903DFYI6gnB5I6SQ","categories":"Home Services, Plumbing, Electricians, Handyman, Contractors","city":"Mesa","hours":{"Friday":"9:0-16:0","Monday":"0:0-0:0","Thursday":"9:0-16:0","Tuesday":"9:0-16:0","Wednesday":"9:0-16:0"},"is_open":1,"latitude":33.4280652,"longitude":-111.7266485,"name":"USE MY GUY SERVICES LLC","postal_code":"85205","review_count":26,"stars":4.5,"state":"AZ"}
{"address":"1720 W Elliot Rd, Ste 105","attributes":{"BusinessAcceptsCreditCards":"True"},"business_id":"cKyLV5oWZJ2NudWgqs8VZw","categories":"Auto Repair, Automotive, Oil Change Stations, Transmission Repair","city":"Gilbert","hours":{"Friday":"7:0-18:0","Monday":"7:0-18:0","Saturday":"7:0-15:0","Thursday":"7:0-18:0","Tuesday":"7:0-18:0","Wednesday":"7:0-18:0"},"is_open":1,"latitude":33.3503993,"longitude":-111.8271417,"name":"Oasis Auto Center - Gilbert","postal_code":"85233","review_count":38,"stars":4.5,"state":"AZ"}
{"address":"6870 S Rainbow Blvd, Ste 117","attributes":{"BikeParking":"True","BusinessAcceptsCreditCards":"True","BusinessParking":"{'garage': False, 'street': False, 'validated': False, 'lot': True, 'valet': False}","RestaurantsPriceRange2":"1","WiFi":"u'no'"},"business_id":"oiAlXZPIFm2nBCt0DHLu_Q","categories":"Dry Cleaning & Laundry, Local Services, Laundry Services","city":"Las Vegas","hours":{"Friday":"7:0-19:0","Monday":"7:0-19:0","Saturday":"9:0-17:0","Thursday":"7:0-19:0","Tuesday":"7:0-19:0","Wednesday":"7:0-19:0"},"is_open":1,"latitude":36.0639767,"longitude":-115.241463,"name":"Green World Cleaners","postal_code":"89118","review_count":81,"stars":3.5,"state":"NV"}
{"address":"6910 E Southern Ave","attributes":{"BusinessAcceptsCreditCards":"True","ByAppointmentOnly":"False"},"business_id":"ScYkbYNkDgCneBrD9vqhCQ","categories":"Auto Repair, Oil Change Stations, Automotive, Tires","city":"Mesa","hours":{"Friday":"7:30-17:0","Monday":"7:30-17:0","Saturday":"7:30-13:0","Thursday":"7:30-17:0","Tuesday":"7:30-17:0","Wednesday":"7:30-17:0"},"is_open":1,"latitude":33.3938847,"longitude":-111.6822257,"name":"Junction Tire & Auto Service","postal_code":"85209","review_count":18,"stars":5.0,"state":"AZ"}
{"address":"404 E Green St","attributes":{"Alcohol":"'none'","BikeParking":"False","BusinessAcceptsCreditCards":"True","BusinessParking":"None","ByAppointmentOnly":"False","GoodForKids":"False","HasTV":"True","NoiseLevel":"u'quiet'","OutdoorSeating":"False","RestaurantsAttire":"u'casual'","RestaurantsDelivery":"True","RestaurantsGoodForGroups":"False","RestaurantsPriceRange2":"1","RestaurantsReservations":"False","RestaurantsTakeOut":"True"},"business_id":"pQeaRpvuhoEqudo3uymHIQ","categories":"Ethnic Food, Food Trucks, Specialty Food, Imported Food, Argentine, Food, Restaurants, Empanadas","city":"Champaign","hours":{"Friday":"11:30-14:30","Monday":"11:30-14:30","Thursday":"11:30-14:30","Tuesday":"11:30-14:30","Wednesday":"11:30-14:30"},"is_open":1,"latitude":40.1104457,"longitude":-88.2330726,"name":"The Empanadas House","postal_code":"61820","review_count":5,"stars":4.5,"state":"IL"}
{"address":"700 Kipling Avenue Etobicoke","attributes":{"BikeParking":"False","BusinessParking":"{'garage': False, 'street': False, 'validated': False, 'lot': False, 'valet': False}","ByAppointmentOnly":"True","GoodForKids":"True"},"business_id":"EosRKXIGeSWFYWwpkbhNnA","categories":"Martial Arts, Gyms, Fitness & Instruction, Active Life","city":"Toronto","hours":{"Friday":"5:30-23:0","Monday":"5:30-23:0","Saturday":"8:0-19:0","Sunday":"8:0-17:0","Thursday":"5:30-23:0","Tuesday":"5:30-23:0","Wednesday":"5:30-23:0"},"is_open":1,"latitude":43.6245394916,"longitude":-79.5291079302,"name":"Xtreme Couture","postal_code":"M8Z 5G3","review_count":16,"stars":3.0,"state":"ON"}
{"address":"","business_id":"MbZMmwo-eL0Jnm_Yb9KJrA","categories":"Contractors, Landscaping, Home Services","city":"Calgary","hours":{"Friday":"7:0-17:0","Monday":"7:0-17:0","Saturday":"7:0-17:0","Thursday":"7:0-17:0","Tuesday":"7:0-17:0","Wednesday":"7:0-17:0"},"is_open":1,"latitude":50.9459599,"longitude":-114.0372072,"name":"Chinook Landscaping and Design","postal_code":"T2J 2P2","review_count":3,"stars":5.0,"state":"AB"}
{"address":"1110 Saw Mill Run Blvd","attributes":{"BusinessAcceptsCreditCards":"True"},"business_id":"7Dv4_HAxsxvadEsT5fxQBg","categories":"Automotive, Auto Repair","city":"Pittsburgh","hours":{"Friday":"8:0-17:0","Monday":"8:0-17:0","Saturday":"8:0-17:0","Thursday":"8:0-17:0","Tuesday":"8:0-17:0"},"is_open":1,"latitude":40.4066674,"longitude":-80.0044502,"name":"Dependable Brakes & Exhaust","postal_code":"15226","review_count":5,"stars":5.0,"state":"PA"}
{"address":"2831 Parmenter St","attributes":{"BikeParking":"True","BusinessAcceptsCreditCards":"True","BusinessParking":"{'garage': False, 'street': True, 'validated': False, 'lot': True, 'valet': False}","Caters":"True","RestaurantsPriceRange2":"1","RestaurantsTakeOut":"True","WheelchairAccessible":"True","WiFi":"u'no'"},"business_id":"M_guz7Dj7hX0evS672wIwA","categories":"Desserts, Food, Ice Cream & Frozen Yogurt","city":"Middleton","hours":{"Friday":"11:0-22:0","Monday":"0:0-0:0","Saturday":"11:0-22:0","Sunday":"11:0-21:0","Thursday":"11:0-21:0","Tuesday":"11:0-21:0","Wednesday":"11:0-21:0"},"is_open":1,"latitude":43.1053100891,"longitude":-89.5101417974,"name":"Chocolate Shoppe Ice Cream","postal_code":"53562","review_count":6,"stars":3.5,"state":"WI"}
{"address":"116 N Roosevelt Ave, Bldg B, Ste 124","attributes":{"BusinessAcceptsCreditCards":"True","ByAppointmentOnly":"True"},"business_id":"JjJs3o60uQCfctDjs45cmA","categories":"Contractors, Home Services, Local Services","city":"Chandler","hours":{"Friday":"9:0-16:0","Monday":"9:0-16:0","Thursday":"9:0-16:0","Tuesday":"9:0-16:0","Wednesday":"9:0-16:0"},"is_open":1,"latitude":33.3038687,"longitude":-111.9516598,"name":"Convertabath","postal_code":"85226","review_count":10,"stars":2.5,"state":"AZ"}
{"address":"5465 Simmons St","attributes":{"BusinessAcceptsCreditCards":"True","BusinessParking":"{'garage': False, 'street': False, 'validated': False, 'lot': False, 'valet': False}","ByAppointmentOnly":"True","RestaurantsPriceRange2":"3"},"business_id":"kOICO53wbOiOJcKuCgOQ3A","categories":"Beauty & Spas, Tanning","city":"North Las Vegas","hours":{"Friday":"8:0-21:0","Monday":"8:0-21:0","Saturday":"9:0-19:0","Sunday":"9:0-19:0","Thursday":"8:0-21:0","Tuesday":"8:0-21:0","Wednesday":"8:0-21:0"},"is_open":0,"latitude":36.263362,"longitude":-115.1798386,"name":"Tan Las Vegas","postal_code":"89031","review_count":5,"stars":3.5,"state":"NV"}
{"address":"2402 Atchley Dr","attributes":{"BusinessAcceptsCreditCards":"True"},"business_id":"rqcOZePlVvJP9EtzldIz0w","categories":"Local Services, Self Storage","city":"Henderson","hours":{"Friday":"8:0-18:0","Monday":"8:0-18:0","Saturday":"8:0-18:0","Sunday":"9:0-15:0","Thursday":"8:0-18:0","Tuesday":"8:0-18:0","Wednesday":"8:0-18:0"},"is_open":0,"latitude":35.9520457,"longitude":-115.0934834,"name":"Desert Storage","postal_code":"89052","review_count":5,"stars":5.0,"state":"NV"}
{"address":"3131 Las Vegas Blvd","attributes":{"BikeParking":"True","BusinessAcceptsCreditCards":"True","BusinessParking":"{'garage': True, 'street': False, 'validated': False, 'lot': False, 'valet': False}","RestaurantsPriceRange2":"4"},"business_id":"uZuh51lXu7tsrC8RAwkg1A","categories":"Shopping, Shoe Stores, Fashion","city":"Las Vegas","is_open":0,"latitude":36.1257322229,"longitude":-115.1676084101,"name":"Manolo Blahnik","postal_code":"89109","review_count":32,"stars":4.5,"state":"NV"}
{"address":"2115 E Cedar St, Unit 3","attributes":{"BusinessAcceptsCreditCards":"True","RestaurantsDelivery":"True"},"business_id":"nIEhsGbw0vJuYl05bzzj6Q","categories":"Event Planning & Services, Wedding Planning, Flowers & Gifts, Shopping, Party & Event Planning, Florists","city":"Tempe","is_open":1,"latitude":33.4115139,"longitude":-111.8953784,"name":"Bloom & Blueprint","postal_code":"85281","review_count":7,"stars":4.5,"state":"AZ"}
{"address":"2915 Cherry Rd","attributes":{"BusinessAcceptsCreditCards":"True"},"business_id":"edQoeeBFUTYGwnUSE0tGPg","categories":"Auto Customization, Tires, Motorcycle Repair, Automotive, Oil Change Stations, Auto Repair","city":"Rock Hill","hours":{"Friday":"8:0-18:0","Monday":"8:0-18:0","Saturday":"9:0-15:0","Thursday":"8:0-18:0","Tuesday":"8:0-18:0","Wednesday":"8:0-18:0"},"is_open":1,"latitude":34.9811205,"longitude":-80.9790228,"name":"Car Guyz","postal_code":"29730","review_count":10,"stars":4.5,"state":"SC"}
{"address":"5229 S Power Rd","attributes":{"AcceptsInsurance":"False","BikeParking":"True","BusinessAcceptsCreditCards":"True","BusinessParking":"{'garage': False, 'street': False, 'validated': False, 'lot': True, 'valet': False}","ByAppointmentOnly":"True","DogsAllowed":"False","GoodForKids":"True","WheelchairAccessible":"True"},"business_id":"Vwo64kNYDjKi98gUUv4-iQ","categories":"Weight Loss Centers, Fitness & Instruction, Boot Camps, Health & Medical, Active Life, Gyms, Trainers, Interval Training Gyms","city":"Mesa","hours":{"Friday":"5:30-20:0","Monday":"5:30-20:0","Saturday":"7:30-10:0","Thursday":"5:30-20:0","Tuesday":"5:30-20:0","Wednesday":"5:30-20:0"},"is_open":1,"latitude":33.3207235,"longitude":-111.6858686,"name":"Gateway Fit Body Boot Camp","postal_code":"85212","review_count":16,"stars":4.5,"state":"AZ"}
{"address":"4508 E Independence Blvd","attributes":{"BusinessAcceptsCreditCards":"True","BusinessParking":"{'garage': False, 'street': False, 'validated': False, 'lot': False, 'valet': False}","GoodForKids":"True","OutdoorSeating":"False","RestaurantsAttire":"u'casual'","RestaurantsGoodForGroups":"True","RestaurantsPriceRange2":"1","RestaurantsReservations":"False","RestaurantsTakeOut":"True"},"business_id":"CsLQLiRoafpJPJSkNX2h5Q","categories":"Food, Restaurants, Grocery, Middle Eastern","city":"Charlotte","is_open":0,"latitude":35.194894,"longitude":-80.767442,"name":"Middle East Deli","postal_code":"28205","review_count":5,"stars":3.0,"state":"NC"}
{"address":"5850 W Glendale Avenue","attributes":{"BikeParking":"True","BusinessAcceptsCreditCards":"False","BusinessParking":"{'garage': False, 'street': False, 'validated': False, 'lot': False, 'valet': False}","GoodForKids":"True","RestaurantsPriceRange2":"2","RestaurantsTakeOut":"False"},"business_id":"x3Po6tJGb729u_HJPY6UCA","categories":"Arts & Entertainment, Festivals, Local Flavor","city":"Glendale","hours":{"Friday":"18:0-22:0","Saturday":"18:0-22:0","Sunday":"18:0-22:0"},"is_open":1,"latitude":33.5389498,"longitude":-112.1851785,"name":"Glendale Glitters","postal_code":"85301","review_count":52,"stars":2.5,"state":"AZ"}
{"address":"4431 Neck Rd","attributes":{"GoodForKids":"True"},"business_id":"idgGrA8gt699JDUPKyiHJw","categories":"Festivals, Arts & Entertainment","city":"Huntersville","is_open":1,"latitude":35.3857568,"longitude":-80.9458111,"name":"North Carolina Brewers And Music Festival","postal_code":"28078","review_count":3,"stars":4.0,"state":"NC"}
{"address":"","attributes":{"BusinessAcceptsCreditCards":"True"},"business_id":"mKTq1T_IAplDpHUcMzOXkw","categories":"Hotels & Travel, Transportation, Taxis, Beer, Wine & Spirits, Food, Food Delivery Services","city":"Gastonia","hours":{"Friday":"9:0-2:30","Monday":"0:0-0:0","Saturday":"9:0-2:30","Sunday":"12:0-0:0","Thursday":"9:0-0:0","Tuesday":"9:0-0:0","Wednesday":"9:0-0:0"},"is_open":1,"latitude":35.2528422,"longitude":-81.1526976,"name":"Tipsy Ryde","postal_code":"28054","review_count":3,"stars":3.5,"state":"NC"}
{"address":"15480 Bayview Avenue, unit D0110","attributes":{"Alcohol":"u'none'","BikeParking":"True","BusinessParking":"{'garage': False, 'street': False, 'validated': False, 'lot': True, 'valet': False}","Caters":"True","DogsAllowed":"False","HasTV":"True","OutdoorSeating":"False","RestaurantsDelivery":"True","RestaurantsReservations":"False","RestaurantsTableService":"False","RestaurantsTakeOut":"True","WiFi":"u'no'"},"business_id":"eBEfgOPG7pvFhb2wcG9I7w","categories":"Restaurants, Cheesesteaks, Poutineries","city":"Aurora","hours":{"Friday":"11:0-22:0","Monday":"11:0-22:0","Saturday":"11:0-22:0","Sunday":"11:0-21:0","Thursday":"11:0-22:0","Tuesday":"11:0-22:0","Wednesday":"11:0-22:0"},"is_open":1,"latitude":44.0109618,"longitude":-79.448677,"name":"Philthy Phillys","postal_code":"L4G 7J1","review_count":4,"stars":4.5,"state":"ON"}
{"address":"300 John Street","attributes":{"Alcohol":"u'none'","GoodForKids":"True","RestaurantsDelivery":"True","RestaurantsGoodForGroups":"False","RestaurantsReservations":"False","RestaurantsTakeOut":"True"},"business_id":"lu7vtrp_bE9PnxWfA8g4Pg","categories":"Japanese, Fast Food, Food Court, Restaurants","city":"Thornhill","is_open":1,"latitude":43.8204923,"longitude":-79.3984661,"name":"Banzai Sushi","postal_code":"L3T 5W4","review_count":7,"stars":4.5,"state":"ON"}
{"address":"306 Yonge Street","attributes":{"BikeParking":"True","BusinessParking":"{'garage': False, 'street': False, 'validated': False, 'lot': False, 'valet': False}","RestaurantsPriceRange2":"3"},"business_id":"1wWneWD_E1pBIyVpdHMaQg","categories":"Shopping, Shoe Stores, Fashion","city":"Toronto","hours":{"Friday":"10:0-21:0","Monday":"10:0-21:0","Saturday":"9:30-21:0","Sunday":"11:0-19:0","Thursday":"10:0-21:0","Tuesday":"10:0-21:0","Wednesday":"10:0-21:0"},"is_open":1,"latitude":43.6565424,"longitude":-79.3813076,"name":"Air Jordan Store","postal_code":"M5B 1R4","review_count":9,"stars":4.0,"state":"ON"}
{"address":"5201 E Independence Blvd","attributes":{"BusinessAcceptsCreditCards":"True"},"business_id":"0pOlmHVeidsh63iAWdTAfg","categories":"Auto Repair, Car Dealers, Automotive","city":"Charlotte","hours":{"Friday":"7:30-19:0","Monday":"0:0-0:0","Saturday":"9:0-18:0","Thursday":"7:30-19:0","Tuesday":"7:30-19:0","Wednesday":"7:30-19:0"},"is_open":1,"latitude":35.1880178706,"longitude":-80.758757852,"name":"Hendrick Motors of Charlotte - Mercedes-Benz","postal_code":"28212","review_count":32,"stars":2.5,"state":"NC"}
{"address":"16223 N Cave Creek Rd","attributes":{"BusinessAcceptsCreditCards":"True"},"business_id":"07cgbTbANYhVDfzTMOkB9w","categories":"Automotive, Auto Repair","city":"Phoenix","hours":{"Friday":"9:0-17:0","Monday":"7:30-17:0","Thursday":"9:0-17:0","Tuesday":"9:0-17:0","Wednesday":"9:0-17:0"},"is_open":1,"latitude":33.6336893,"longitude":-112.0304348,"name":"Frontier Automotive","postal_code":"85032","review_count":17,"stars":4.5,"state":"AZ"}
{"address":"415 Horner Avenue","attributes":{"BikeParking":"False","RestaurantsPriceRange2":"3"},"business_id":"007Dg4ESDVacWcC4Vq704Q","categories":"Shopping, Food, Organic Stores, Specialty Food, Health Markets, Food Delivery Services, Grocery, Farmers Market","city":"Toronto","hours":{"Friday":"9:0-16:0","Monday":"9:0-16:0","Thursday":"9:0-16:0","Tuesday":"9:0-16:0","Wednesday":"9:0-16:0"},"is_open":0,"latitude":43.603232,"longitude":-79.5384244,"name":"Front Door Organics","postal_code":"M8W 4W3","review_count":8,"stars":4.0,"state":"ON"}
{"address":"13071 Yonge Street","attributes":{"Alcohol":"u'full_bar'","Ambience":"{'touristy': False, 'hipster': False, 'romantic': False, 'intimate': False, 'trendy': False, 'upscale': False, 'classy': False, 'casual': False}","BusinessParking":"{'garage': False, 'street': True, 'validated': False, 'lot': False, 'valet': False}","Caters":"True","DogsAllowed":"False","GoodForMeal":"{'dessert': False, 'latenight': False, 'lunch': False, 'dinner': False, 'brunch': False, 'breakfast': False}","HappyHour":"False","HasTV":"True","OutdoorSeating":"True","RestaurantsDelivery":"True","RestaurantsReservations":"True","RestaurantsTableService":"True","RestaurantsTakeOut":"True","WheelchairAccessible":"True","WiFi":"u'free'"},"business_id":"9sRGfSVEfLhN_km60YruTA","categories":"Persian/Iranian, Turkish, Middle Eastern, Restaurants, Kebab","city":"Richmond Hill","hours":{"Friday":"12:0-0:0","Saturday":"12:0-0:0","Sunday":"11:0-21:0","Thursday":"12:0-21:0","Tuesday":"12:0-21:0","Wednesday":"12:0-21:0"},"is_open":1,"latitude":43.9470107964,"longitude":-79.454861645,"name":"Apadana Restaurant","postal_code":"L4E 1A5","review_count":3,"stars":3.0,"state":"ON"}
{"address":"8130 Boulevard Champlain","attributes":{"BikeParking":"True","BusinessParking":"{'garage': False, 'street': False, 'validated': False, 'lot': False, 'valet': False}","Caters":"True","RestaurantsPriceRange2":"2","RestaurantsTakeOut":"True"},"business_id":"pcaQDBM6r0PWTXfYZK6RdA","categories":"Food, Grocery","city":"Lasalle","hours":{"Friday":"8:0-22:0","Monday":"8:0-22:0","Saturday":"8:0-22:0","Sunday":"8:0-22:0","Thursday":"8:0-22:0","Tuesday":"8:0-22:0","Wednesday":"8:0-22:0"},"is_open":1,"latitude":45.4256452,"longitude":-73.6119339,"name":"IGA Extra","postal_code":"H8P 1B4","review_count":6,"stars":3.0,"state":"QC"}
{"address":"1255 W Main St","attributes":{"BikeParking":"True","BusinessAcceptsCreditCards":"True","BusinessParking":"{'garage': False, 'street': False, 'validated': False, 'lot': False, 'valet': False}","RestaurantsPriceRange2":"1"},"business_id":"DCsS3SgVFO56F6wRO_ewgA","categories":"Donuts, Juice Bars & Smoothies, Food, Coffee & Tea","city":"Mesa","hours":{"Friday":"0:0-0:0","Monday":"0:0-0:0","Saturday":"0:0-0:0","Sunday":"0:0-0:0","Thursday":"0:0-0:0","Tuesday":"0:0-0:0","Wednesday":"0:0-0:0"},"is_open":0,"latitude":33.4144086,"longitude":-111.8583777,"name":"Missy Donuts & Coffee","postal_code":"85201","review_count":7,"stars":2.5,"state":"AZ"}
{"address":"4550 East Cactus Rd, #KSFC-4","attributes":{"Alcohol":"u'none'","Ambience":"{'romantic': False, 'intimate': False, 'touristy': False, 'hipster': False, 'divey': False, 'classy': False, 'trendy': False, 'upscale': False, 'casual': False}","BikeParking":"True","BusinessAcceptsCreditCards":"True","BusinessParking":"{'garage': False, 'street': False, 'validated': False, 'lot': True, 'valet': False}","GoodForKids":"True","HasTV":"False","OutdoorSeating":"False","RestaurantsAttire":"u'casual'","RestaurantsDelivery":"False","RestaurantsGoodForGroups":"True","RestaurantsPriceRange2":"1","RestaurantsReservations":"False","RestaurantsTakeOut":"True"},"business_id":"vjTVxnsQEZ34XjYNS-XUpA","categories":"Food, Pretzels, Bakeries, Fast Food, Restaurants","city":"Phoenix","hours":{"Friday":"10:0-21:0","Monday":"10:0-21:0","Saturday":"10:0-21:0","Sunday":"11:0-18:0","Thursday":"10:0-21:0","Tuesday":"10:0-21:0","Wednesday":"10:0-21:0"},"is_open":1,"latitude":33.602822,"longitude":-111.983533,"name":"Wetzel's Pretzels","postal_code":"85032","review_count":10,"stars":4.0,"state":"AZ"}
{"address":"29600 Chagrin Blvd","attributes":{"BusinessAcceptsCreditCards":"False","GoodForKids":"True"},"business_id":"03x6ZlJ7s39DHqfTJU1Ecg","categories":"Event Planning & Services, Venues & Event Spaces, Golf, Country Clubs, Active Life, Arts & Entertainment","city":"Beachwood","is_open":1,"latitude":41.461448,"longitude":-81.470127,"name":"Beechmont Country Club","postal_code":"44122","review_count":7,"stars":4.5,"state":"OH"}
{"address":"17058 W Bell Raod, Ste 101","attributes":{"BikeParking":"True","BusinessAcceptsBitcoin":"False","BusinessAcceptsCreditCards":"True","BusinessParking":"{'garage': False, 'street': False, 'validated': False, 'lot': True, 'valet': False}","ByAppointmentOnly":"False","RestaurantsPriceRange2":"2","WheelchairAccessible":"True"},"business_id":"UqBTL1dq9QcOISikgeknow","categories":"Shopping, Vape Shops, Tobacco Shops","city":"Surprise","hours":{"Friday":"10:0-20:0","Monday":"10:0-20:0","Saturday":"10:0-20:0","Sunday":"10:0-20:0","Thursday":"10:0-20:0","Tuesday":"10:0-20:0","Wednesday":"10:0-20:0"},"is_open":1,"latitude":33.640552,"longitude":-112.425676,"name":"GK's Vapor Pub","postal_code":"85374","review_count":8,"stars":5.0,"state":"AZ"}
{"address":"9595 W Tropicana Ave","attributes":{"Alcohol":"u'none'","Ambience":"{'romantic': False, 'intimate': False, 'classy': False, 'hipster': False, 'divey': False, 'touristy': False, 'trendy': False, 'upscale': False, 'casual': True}","BikeParking":"True","BusinessAcceptsCreditCards":"True","BusinessParking":"{'garage': False, 'street': False, 'validated': False, 'lot': True, 'valet': False}","Caters":"False","GoodForKids":"True","HasTV":"False","NoiseLevel":"u'average'","OutdoorSeating":"False","RestaurantsAttire":"u'casual'","RestaurantsDelivery":"False","RestaurantsGoodForGroups":"True","RestaurantsPriceRange2":"1","RestaurantsReservations":"False","RestaurantsTakeOut":"True","WiFi":"u'no'"},"business_id":"fnZrZlqW1Z8iWgTVDfv_MA","categories":"Mexican, Restaurants, Fast Food","city":"Las Vegas","is_open":0,"latitude":36.0997379,"longitude":-115.3015683,"name":"Carl's Jr","postal_code":"89147","review_count":15,"stars":2.5,"state":"NV"}
{"address":"1300 N 12th St, Ste 605","attributes":{"AcceptsInsurance":"True","ByAppointmentOnly":"True"},"business_id":"kHCTmEekJJwYsJEy7xYM5w","categories":"Doctors, Health & Medical, Preventive Medicine, Medical Centers","city":"Phoenix","hours":{"Friday":"8:0-17:0","Monday":"8:0-17:0","Thursday":"8:0-17:0","Tuesday":"8:0-17:0","Wednesday":"8:0-17:0"},"is_open":1,"latitude":33.4628408,"longitude":-112.0572315,"name":"Banner - University Family Medicine Center","postal_code":"85006","review_count":3,"stars":3.0,"state":"AZ"}
{"address":"843 Kipling Avenue","attributes":{"Alcohol":"u'none'","Ambience":"{'romantic': False, 'intimate': False, 'classy': False, 'hipster': False, 'divey': False, 'touristy': False, 'trendy': False, 'upscale': False, 'casual': True}","BusinessParking":"{'garage': False, 'street': False, 'validated': False, 'lot': True, 'valet': False}","Caters":"False","GoodForKids":"True","HasTV":"False","NoiseLevel":"u'average'","OutdoorSeating":"False","RestaurantsAttire":"u'casual'","RestaurantsDelivery":"False","RestaurantsGoodForGroups":"True","RestaurantsPriceRange2":"2","RestaurantsReservations":"False","RestaurantsTakeOut":"True","WiFi":"'no'"},"business_id":"rVBPQdeayMYht4Uv_FOLHg","categories":"Restaurants, Burgers, Food","city":"Toronto","is_open":0,"latitude":43.6332914,"longitude":-79.5317683,"name":"Gourmet Burger Company","postal_code":"M8Z 5G9","review_count":13,"stars":3.0,"state":"ON"}
{"address":"800 Fort Duquesne Blvd, Ste 1","attributes":{"BusinessAcceptsCreditCards":"True"},"business_id":"_4Oe9V-qTpU5iemM9bphlA","categories":"Oil Change Stations, Auto Repair, Automotive, Tires","city":"Pittsburgh","hours":{"Friday":"7:0-18:0","Monday":"7:0-18:0","Thursday":"7:0-18:0","Tuesday":"7:0-18:0","Wednesday":"8:0-16:0"},"is_open":1,"latitude":40.4446143588,"longitude":-79.9993437231,"name":"Goodyear Auto Service Center","postal_code":"15222","review_count":12,"stars":3.5,"state":"PA"}
{"address":"8111 Concord Mills Blvd, Space 214","attributes":{"BusinessAcceptsCreditCards":"True","BusinessParking":"{'garage': False, 'street': False, 'validated': False, 'lot': False, 'valet': False}","RestaurantsPriceRange2":"2"},"business_id":"PslhllUwcQFavRHp-lyMOQ","categories":"Children's Clothing, Shopping, Outlet Stores, Fashion, Toy Stores","city":"Concord","hours":{"Friday":"10:0-21:0","Monday":"10:0-21:0","Saturday":"10:0-21:0","Sunday":"12:0-19:0","Thursday":"10:0-21:0","Tuesday":"10:0-21:0","Wednesday":"10:0-21:0"},"is_open":1,"latitude":35.370076,"longitude":-80.723929,"name":"Disney Store","postal_code":"28027","review_count":6,"stars":3.5,"state":"NC"}
{"address":"1541 E 38th St, Ste 101","attributes":{"Alcohol":"u'none'","Ambience":"{'touristy': False, 'hipster': False, 'romantic': False, 'divey': False, 'intimate': False, 'trendy': False, 'upscale': False, 'classy': False, 'casual': False}","BYOB":"False","BikeParking":"True","BusinessAcceptsCreditCards":"True","BusinessParking":"None","Caters":"False","Corkage":"False","GoodForMeal":"{'dessert': False, 'latenight': False, 'lunch': False, 'dinner': False, 'brunch': False, 'breakfast': False}","HasTV":"True","OutdoorSeating":"False","RestaurantsDelivery":"True","RestaurantsTableService":"True","RestaurantsTakeOut":"True","WheelchairAccessible":"True","WiFi":"u'no'"},"business_id":"98hyK2QEUeI8v2y0AghfZA","categories":"Restaurants, Vietnamese, Soup","city":"Cleveland","hours":{"Friday":"11:0-20:0","Monday":"11:0-20:0","Saturday":"11:0-20:0","Sunday":"11:0-20:0","Thursday":"11:0-20:0","Wednesday":"11:0-20:0"},"is_open":1,"latitude":41.5121553,"longitude":-81.663332,"name":"Pho Lee's Vietnamese Restaurant","postal_code":"44114","review_count":23,"stars":4.5,"state":"OH"}
{"address":"6530 S Decatur Blvd","attributes":{"Alcohol":"u'none'","Ambience":"{'romantic': False, 'intimate': False, 'touristy': False, 'hipster': False, 'divey': False, 'classy': False, 'trendy': False, 'upscale': False, 'casual': False}","BusinessAcceptsCreditCards":"True","BusinessParking":"{'garage': False, 'street': False, 'validated': False, 'lot': False, 'valet': False}","Caters":"False","GoodForKids":"False","HasTV":"True","NoiseLevel":"u'loud'","OutdoorSeating":"False","RestaurantsAttire":"u'casual'","RestaurantsGoodForGroups":"False","RestaurantsPriceRange2":"2","RestaurantsReservations":"False","RestaurantsTakeOut":"True"},"business_id":"fhNf_sg-XzZ3e7HEVGuOZg","categories":"Burgers, Restaurants, American (Traditional), Chicken Wings","city":"Las Vegas","hours":{"Friday":"11:0-22:0","Monday":"11:0-22:0","Saturday":"11:0-22:0","Sunday":"11:0-22:0","Thursday":"11:0-22:0","Tuesday":"11:0-22:0","Wednesday":"11:0-22:0"},"is_open":0,"latitude":36.071196,"longitude":-115.207463,"name":"Meat Chix And Wieners","postal_code":"89118","review_count":10,"stars":3.0,"state":"NV"}
{"address":"5252 Rue Jean Talon O","attributes":{"Ambience":"{'romantic': False, 'intimate': False, 'classy': False, 'hipster': False, 'divey': False, 'touristy': False, 'trendy': False, 'upscale': False, 'casual': False}","BikeParking":"True","BusinessParking":"{'garage': False, 'street': False, 'validated': False, 'lot': False, 'valet': False}","Caters":"False","GoodForKids":"True","HasTV":"True","NoiseLevel":"u'average'","OutdoorSeating":"True","RestaurantsAttire":"u'casual'","RestaurantsDelivery":"True","RestaurantsGoodForGroups":"True","RestaurantsPriceRange2":"2","RestaurantsReservations":"False","RestaurantsTakeOut":"True","WiFi":"u'no'"},"business_id":"LoRef3ChgZKbxUio-sHgQg","categories":"Restaurants, Lebanese, Middle Eastern","city":"Montréal","is_open":1,"latitude":45.4948701572,"longitude":-73.6519035927,"name":"Amir","postal_code":"H4P 2A7","review_count":18,"stars":3.0,"state":"QC"}
{"address":"2602 W Southern Ave","attributes":{"Alcohol":"u'none'","Ambience":"{'romantic': False, 'intimate': False, 'classy': False, 'hipster': False, 'divey': False, 'touristy': False, 'trendy': False, 'upscale': False, 'casual': True}","BusinessAcceptsCreditCards":"True","BusinessParking":"{'garage': False, 'street': False, 'validated': False, 'lot': False, 'valet': False}","Caters":"False","GoodForKids":"True","HasTV":"True","NoiseLevel":"u'quiet'","OutdoorSeating":"False","RestaurantsAttire":"u'casual'","RestaurantsDelivery":"False","RestaurantsGoodForGroups":"True","RestaurantsPriceRange2":"1","RestaurantsReservations":"False","RestaurantsTakeOut":"True","WiFi":"u'no'"},"business_id":"Ga2Bt7xfqoggTypWD5VpoQ","categories":"Mexican, Restaurants","city":"Tempe","hours":{"Friday":"7:0-20:0","Monday":"7:0-20:0","Saturday":"7:0-20:0","Sunday":"7:0-20:0","Thursday":"7:0-20:0","Tuesday":"7:0-20:0","Wednesday":"7:0-20:0"},"is_open":0,"latitude":33.393199,"longitude":-111.97627,"name":"Amando's Bros","postal_code":"85282","review_count":9,"stars":4.0,"state":"AZ"}
{"address":"150 Boulevard Crémazie E","attributes":{"BikeParking":"True","BusinessParking":"None","OutdoorSeating":"True","RestaurantsPriceRange2":"1","RestaurantsTakeOut":"True","WiFi":"'free'"},"business_id":"_xOeoXfPUQTNlUAhXl32ug","categories":"Coffee & Tea, Food","city":"Montréal","hours":{"Friday":"5:30-23:0","Monday":"5:30-23:0","Saturday":"6:30-23:0","Sunday":"6:30-23:0","Thursday":"5:30-23:0","Tuesday":"5:30-23:0","Wednesday":"5:30-23:0"},"is_open":1,"latitude":45.542993,"longitude":-73.640218,"name":"Starbucks","postal_code":"H2P 1E2","review_count":4,"stars":3.5,"state":"QC"}
{"address":"5932 W Bell Rd, Ste D-109","attributes":{"Alcohol":"u'none'","BusinessAcceptsCreditCards":"True","BusinessParking":"{'garage': False, 'street': False, 'validated': False, 'lot': True, 'valet': False}","GoodForKids":"True","OutdoorSeating":"False","RestaurantsAttire":"'casual'","RestaurantsGoodForGroups":"True","RestaurantsPriceRange2":"1","RestaurantsReservations":"False","RestaurantsTakeOut":"True"},"business_id":"xFc50drSPxXkcLvX5ygqrg","categories":"Burgers, Fast Food, American (New), Restaurants, Hot Dogs","city":"Glendale","is_open":0,"latitude":33.6403912,"longitude":-112.1870284,"name":"Boomer's Sweet Home Chicago","postal_code":"85308","review_count":12,"stars":3.5,"state":"AZ"}
{"address":"1 Bass Pro Mills Drive","attributes":{"BikeParking":"True","BusinessParking":"{'garage': False, 'street': False, 'validated': False, 'lot': True, 'valet': False}","RestaurantsPriceRange2":"2"},"business_id":"oPfzMA_kA9NQwG-h-JkGzA","categories":"Fashion, Sports Wear, Shopping, Sporting Goods, Outdoor Gear","city":"Concord","hours":{"Friday":"9:0-21:0","Monday":"9:0-21:0","Saturday":"9:0-21:0","Sunday":"10:0-19:0","Thursday":"9:0-21:0","Tuesday":"9:0-21:0","Wednesday":"9:0-21:0"},"is_open":1,"latitude":43.824968,"longitude":-79.543494,"name":"Bass Pro Shops Outdoor World","postal_code":"L4K 5W4","review_count":39,"stars":3.5,"state":"ON"}
{"address":"39905 N Gavilan Peak Pkwy","attributes":{"ByAppointmentOnly":"False"},"business_id":"jutfk7U4GV899q6qfYp5dA","categories":"Churches, Religious Organizations","city":"Anthem","hours":{"Monday":"8:30-16:30","Saturday":"17:30-18:30","Sunday":"11:30-12:30","Thursday":"8:30-16:30","Tuesday":"8:30-16:30","Wednesday":"8:30-16:30"},"is_open":1,"latitude":33.8468406,"longitude":-112.1365477,"name":"Christ's Church of the Valley - Anthem Campus","postal_code":"85086","review_count":4,"stars":5.0,"state":"AZ"}
{"address":"4602 Northfield Road","attributes":{"Alcohol":"u'none'","Ambience":"{'romantic': False, 'intimate': False, 'touristy': False, 'hipster': False, 'divey': False, 'classy': False, 'trendy': False, 'upscale': False, 'casual': False}","BusinessAcceptsCreditCards":"True","BusinessParking":"{'garage': False, 'street': False, 'validated': False, 'lot': True, 'valet': False}","Caters":"False","GoodForKids":"True","GoodForMeal":"{'dessert': False, 'latenight': False, 'lunch': False, 'dinner': False, 'brunch': False, 'breakfast': False}","NoiseLevel":"u'average'","OutdoorSeating":"False","RestaurantsAttire":"u'casual'","RestaurantsDelivery":"False","RestaurantsGoodForGroups":"True","RestaurantsPriceRange2":"1","RestaurantsReservations":"False","RestaurantsTakeOut":"True"},"business_id":"tLpkSwdtqqoXwU0JAGnApw","categories":"Restaurants, Fast Food, Burgers","city":"Cleveland","hours":{"Friday":"10:0-3:0","Monday":"10:0-3:0","Saturday":"10:0-3:0","Sunday":"10:0-3:0","Thursday":"10:0-3:0","Tuesday":"10:0-3:0","Wednesday":"10:0-3:0"},"is_open":1,"latitude":41.434614,"longitude":-81.5270257,"name":"Wendy's","postal_code":"44128","review_count":7,"stars":3.5,"state":"OH"}
{"address":"3460 E Southern Ave, Ste 109","attributes":{"BikeParking":"False","BusinessAcceptsCreditCards":"True","BusinessParking":"{'garage': False, 'street': False, 'validated': False, 'lot': False, 'valet': False}","GoodForKids":"True","NoiseLevel":"u'quiet'","OutdoorSeating":"False","RestaurantsAttire":"'casual'","RestaurantsDelivery":"True","RestaurantsGoodForGroups":"True","RestaurantsPriceRange2":"1","RestaurantsReservations":"False","RestaurantsTakeOut":"True","WiFi":"'no'"},"business_id":"Sd75ucXKoZUM2BEfBHFUOg","categories":"Chinese, Restaurants","city":"Mesa","is_open":0,"latitude":33.39486287,"longitude":-111.7560359322,"name":"China Gourmet","postal_code":"85204","review_count":13,"stars":3.0,"state":"AZ"}
{"address":"101 S Rainbow Blvd, Ste 23, Darby's Hairitage","attributes":{"BusinessAcceptsCreditCards":"False","BusinessParking":"{'garage': False, 'street': False, 'validated': False, 'lot': True, 'valet': False}","ByAppointmentOnly":"True","GoodForKids":"True","RestaurantsPriceRange2":"2"},"business_id":"5XMKDYmMGSKkCkrYoELxzg","categories":"Hair Stylists, Hair Salons, Beauty & Spas","city":"Las Vegas","is_open":1,"latitude":36.1725342,"longitude":-115.2447619,"name":"Annette Thomas Hair Colorist Specialist","postal_code":"89107","review_count":7,"stars":5.0,"state":"NV"}
{"address":"1900 Eglintion Ave E","attributes":{"BusinessParking":"{'garage': False, 'street': False, 'validated': False, 'lot': False, 'valet': False}","ByAppointmentOnly":"False","RestaurantsPriceRange2":"2"},"business_id":"9JCjKd6eFXsAMVwouTh_4Q","categories":"Cosmetics & Beauty Supply, Shopping, Beauty & Spas","city":"Toronto","is_open":1,"latitude":43.7271887,"longitude":-79.2930079,"name":"Bath and Body Works","postal_code":"M1L 2L9","review_count":7,"stars":3.5,"state":"ON"}
{"address":"1227 E Northern Ave","attributes":{"Alcohol":"u'beer_and_wine'","Ambience":"{'touristy': None, 'hipster': None, 'romantic': None, 'divey': False, 'intimate': False, 'trendy': None, 'upscale': None, 'classy': False, 'casual': True}","BestNights":"{'monday': False, 'tuesday': True, 'friday': True, 'wednesday': True, 'thursday': False, 'sunday': False, 'saturday': False}","BikeParking":"False","BusinessAcceptsBitcoin":"False","BusinessAcceptsCreditCards":"True","BusinessParking":"{'garage': False, 'street': False, 'validated': False, 'lot': True, 'valet': False}","ByAppointmentOnly":"False","CoatCheck":"False","DogsAllowed":"False","GoodForDancing":"False","GoodForKids":"False","HappyHour":"True","HasTV":"True","Music":"{'dj': False, 'background_music': False, 'no_music': False, 'jukebox': False, 'live': True, 'video': False, 'karaoke': False}","NoiseLevel":"u'average'","OutdoorSeating":"False","RestaurantsAttire":"u'casual'","RestaurantsGoodForGroups":"True","RestaurantsReservations":"False","Smoking":"u'outdoor'","WheelchairAccessible":"True","WiFi":"u'free'"},"business_id":"Mmd5WDFq9hHcQ3uClngGjQ","categories":"Bars, Arts & Entertainment, Nightlife, Music Venues","city":"Phoenix","hours":{"Friday":"12:0-2:0","Monday":"0:0-0:0","Saturday":"12:0-2:0","Sunday":"12:0-0:0","Thursday":"15:0-0:0","Tuesday":"15:0-0:0","Wednesday":"15:0-0:0"},"is_open":1,"latitude":33.55279,"longitude":-112.0554,"name":"Irene's Tap Room","postal_code":"85020","review_count":79,"stars":4.5,"state":"AZ"}
{"address":"","attributes":{"Alcohol":"u'none'","Ambience":"{'romantic': False, 'intimate': False, 'classy': False, 'hipster': False, 'divey': False, 'touristy': False, 'trendy': False, 'upscale': False, 'casual': False}","BikeParking":"False","BusinessAcceptsCreditCards":"False","BusinessParking":"{'garage': False, 'street': False, 'validated': False, 'lot': False, 'valet': False}","Caters":"True","GoodForKids":"True","HasTV":"True","NoiseLevel":"u'very_loud'","OutdoorSeating":"True","RestaurantsAttire":"u'formal'","RestaurantsDelivery":"False","RestaurantsGoodForGroups":"False","RestaurantsPriceRange2":"4","RestaurantsReservations":"False","RestaurantsTableService":"False","RestaurantsTakeOut":"False","WiFi":"u'no'"},"business_id":"lK-wuiq8b1TuU7bfbQZgsg","categories":"Shopping Centers, Food, Coffee & Tea, Cafes, Museums, Restaurants, Shopping, Local Flavor, Flowers & Gifts, Arts & Entertainment, Art Galleries, Florists","city":"Cleveland","hours":{"Friday":"0:0-0:0","Monday":"0:0-0:0","Saturday":"0:0-0:0","Sunday":"0:0-0:0","Thursday":"0:0-0:0","Tuesday":"0:0-0:0","Wednesday":"0:0-0:0"},"is_open":1,"latitude":41.4893428107,"longitude":-81.711028698,"name":"Hingetown","postal_code":"44113","review_count":4,"stars":3.0,"state":"OH"}
{"address":"6990 E Shea Blvd, Ste 124","attributes":{"BusinessAcceptsCreditCards":"True","BusinessParking":"{'garage': False, 'street': False, 'validated': False, 'lot': True, 'valet': False}"},"business_id":"gflx3mAzi4iG20NOUz19eA","categories":"Arts & Crafts, Shopping","city":"Scottsdale","hours":{"Friday":"10:0-15:0","Saturday":"10:0-16:0","Thursday":"10:0-15:0","Wednesday":"10:0-15:0"},"is_open":1,"latitude":33.5829619,"longitude":-111.930651,"name":"BeStitched Needlepoint","postal_code":"85254","review_count":11,"stars":3.5,"state":"AZ"}
{"address":"7640 W Thomas Rd","attributes":{"BikeParking":"True","BusinessAcceptsCreditCards":"True","BusinessParking":"{'garage': False, 'street': False, 'validated': False, 'lot': True, 'valet': False}","ByAppointmentOnly":"False","GoodForKids":"True"},"business_id":"YFsb1ydMxFLrxtJ3CffVhw","categories":"Yoga, Active Life, Trainers, Sports Clubs, Fitness & Instruction, Gyms","city":"Phoenix","hours":{"Friday":"5:0-21:0","Monday":"8:0-16:0","Saturday":"8:0-19:0","Sunday":"8:0-19:0","Thursday":"8:0-12:0","Tuesday":"5:0-22:0","Wednesday":"5:0-22:0"},"is_open":1,"latitude":33.481551,"longitude":-112.223225,"name":"LA Fitness","postal_code":"85033","review_count":32,"stars":2.5,"state":"AZ"}
{"address":"2490 Rue Notre-Dame O","attributes":{"Alcohol":"'full_bar'","Ambience":"{'touristy': False, 'hipster': False, 'romantic': False, 'intimate': False, 'trendy': False, 'upscale': False, 'classy': False, 'casual': False}","BikeParking":"True","BusinessParking":"{'garage': False, 'street': True, 'validated': False, 'lot': False, 'valet': False}","GoodForDancing":"True","GoodForKids":"False","HasTV":"True","Music":"{'dj': False, 'background_music': False, 'no_music': False, 'jukebox': False, 'live': True, 'video': False, 'karaoke': False}","OutdoorSeating":"False","RestaurantsGoodForGroups":"True","RestaurantsPriceRange2":"2"},"business_id":"3BfGGIJn8lxvu1k3ZZnL1w","categories":"Nightlife, Arts & Entertainment, Performing Arts, Music Venues","city":"Montréal","is_open":1,"latitude":45.4827774,"longitude":-73.5750063,"name":"Théâtre Corona","postal_code":"H3J 1N5","review_count":18,"stars":4.0,"state":"QC"}
{"address":"3605 32 Street NE","attributes":{"BikeParking":"True","BusinessParking":"{'garage': False, 'street': False, 'validated': False, 'lot': True, 'valet': False}","DogsAllowed":"True","RestaurantsPriceRange2":"3","WheelchairAccessible":"True"},"business_id":"rdg0b0tHKvSCQNl6u3tS_A","categories":"Shopping, Caterers, Furniture Stores, Hot Tub & Pool, Hobby Shops, Home & Garden, Musical Instruments & Teachers, Event Planning & Services, Sporting Goods, Pool & Billiards","city":"Calgary","hours":{"Friday":"8:0-17:0","Monday":"8:0-17:0","Saturday":"9:0-17:0","Thursday":"8:0-17:0","Tuesday":"8:0-17:0","Wednesday":"8:0-17:0"},"is_open":1,"latitude":51.0849898438,"longitude":-113.9896052982,"name":"SML Entertainment","postal_code":"T1Y 5Y9","review_count":5,"stars":2.5,"state":"AB"}
{"address":"7510 S Priest Dr","attributes":{"BusinessAcceptsCreditCards":"True","ByAppointmentOnly":"False","GoodForMeal":"{'dessert': False, 'latenight': False, 'lunch': False, 'dinner': False, 'brunch': False, 'breakfast': False}","RestaurantsDelivery":"True","RestaurantsTakeOut":"False","WheelchairAccessible":"True"},"business_id":"LAoSegVNU4wx4GTA8reB6A","categories":"Restaurants, Egyptian, Food Trucks, Food, Middle Eastern","city":"Tempe","is_open":1,"latitude":33.3501044,"longitude":-111.9636604,"name":"Tzikii Food Truck","postal_code":"85283","review_count":4,"stars":3.0,"state":"AZ"}
{"address":"4100 S 38th St, Ste 150","attributes":{"BusinessAcceptsCreditCards":"True","ByAppointmentOnly":"False","WiFi":"u'no'"},"business_id":"tF2ovXGBW6EeaPDWOxjpbg","categories":"Automotive, Auto Parts & Supplies","city":"Phoenix","hours":{"Friday":"8:0-16:0","Monday":"0:0-0:0","Thursday":"8:0-16:0","Tuesday":"8:0-16:0","Wednesday":"8:0-16:0"},"is_open":1,"latitude":33.4098351,"longitude":-112.0009681,"name":"Autohaus Az","postal_code":"85040","review_count":79,"stars":3.5,"state":"AZ"}
{"address":"2130 E Arbors Dr","attributes":{"Alcohol":"u'none'","Ambience":"{'romantic': False, 'intimate': False, 'touristy': False, 'hipster': False, 'divey': False, 'classy': False, 'trendy': False, 'upscale': False, 'casual': False}","BikeParking":"True","BusinessAcceptsCreditCards":"True","BusinessParking":"{'garage': False, 'street': False, 'validated': False, 'lot': True, 'valet': False}","Caters":"False","GoodForKids":"True","HasTV":"False","NoiseLevel":"'average'","OutdoorSeating":"True","RestaurantsAttire":"'casual'","RestaurantsDelivery":"False","RestaurantsGoodForGroups":"True","RestaurantsPriceRange2":"2","RestaurantsReservations":"False","RestaurantsTakeOut":"True","WiFi":"'no'"},"business_id":"-qjn24n8HYF6It9GQrQntw","categories":"Fast Food, American (New), Restaurants, Burgers","city":"Charlotte","hours":{"Friday":"11:0-22:0","Monday":"11:0-22:0","Saturday":"11:0-22:0","Sunday":"11:0-22:0","Thursday":"11:0-22:0","Tuesday":"11:0-22:0","Wednesday":"11:0-22:0"},"is_open":0,"latitude":35.33807,"longitude":-80.757397,"name":"Five Guys Burgers and Fries","postal_code":"28262","review_count":15,"stars":4.0,"state":"NC"}
{"address":"818 S Casino Center Blvd","business_id":"7uYJJpwORUbCirC1mz8n9Q","categories":"Lawyers, Professional Services, DUI Law, Criminal Defense Law","city":"Las Vegas","hours":{"Friday":"0:0-0:0","Monday":"0:0-0:0","Saturday":"0:0-0:0","Sunday":"0:0-0:0","Thursday":"0:0-0:0","Tuesday":"0:0-0:0","Wednesday":"0:0-0:0"},"is_open":1,"latitude":36.1619786,"longitude":-115.1500885,"name":"Gallo Law Office","postal_code":"89101","review_count":3,"stars":2.5,"state":"NV"}
{"address":"311 Unity Center Rd","attributes":{"Alcohol":"'none'","Ambience":"{'romantic': False, 'intimate': False, 'classy': False, 'hipster': False, 'divey': False, 'touristy': False, 'trendy': False, 'upscale': False, 'casual': False}","BikeParking":"True","BusinessAcceptsCreditCards":"True","BusinessParking":"{'garage': False, 'street': False, 'validated': False, 'lot': False, 'valet': False}","GoodForKids":"True","GoodForMeal":"{'dessert': False, 'latenight': False, 'lunch': False, 'dinner': False, 'brunch': False, 'breakfast': False}","HasTV":"True","NoiseLevel":"'quiet'","OutdoorSeating":"False","RestaurantsAttire":"'casual'","RestaurantsDelivery":"True","RestaurantsGoodForGroups":"True","RestaurantsPriceRange2":"1","RestaurantsReservations":"True","RestaurantsTakeOut":"True","WiFi":"'no'"},"business_id":"ZkzutF0P_u0C0yTulwaHkA","categories":"Restaurants, Pizza","city":"Plum","hours":{"Friday":"11:0-22:0","Monday":"0:0-0:0","Saturday":"11:0-22:0","Sunday":"11:0-20:0","Thursday":"11:0-21:0","Tuesday":"11:0-21:0","Wednesday":"11:0-21:0"},"is_open":1,"latitude":40.4899958,"longitude":-79.7792879,"name":"Lelulos Pizzeria","postal_code":"15239","review_count":31,"stars":4.0,"state":"PA"}
{"address":"2218 E Williams Field Rd, Ste 115","attributes":{"BusinessParking":"{'garage': False, 'street': False, 'validated': False, 'lot': False, 'valet': False}"},"business_id":"EjRyYGHUxlwxYY8N73vv2w","categories":"Mobile Phones, Internet Service Providers, Mobile Phone Repair, Local Services, Electronics, IT Services & Computer Repair, Mobile Phone Accessories, Shopping, Home Services, Professional Services","city":"Gilbert","hours":{"Friday":"10:0-21:0","Monday":"10:0-21:0","Saturday":"10:0-21:0","Sunday":"12:0-18:0","Thursday":"10:0-21:0","Tuesday":"10:0-21:0","Wednesday":"10:0-21:0"},"is_open":1,"latitude":33.309233,"longitude":-111.743293,"name":"Verizon Authorized Retailer, TCC","postal_code":"85295","review_count":7,"stars":3.0,"state":"AZ"}
{"address":"230 E Wt Harris Blvd, A1","attributes":{"BusinessAcceptsCreditCards":"True"},"business_id":"EQcCkiXbZARWGhVU02BYcw","categories":"Shipping Centers, Printing Services, Professional Services, Local Services, Signmaking","city":"Charlotte","hours":{"Friday":"7:0-23:0","Monday":"7:0-23:0","Saturday":"8:0-20:0","Sunday":"10:0-20:0","Thursday":"7:0-23:0","Tuesday":"7:0-23:0","Wednesday":"7:0-21:0"},"is_open":1,"latitude":35.3031382,"longitude":-80.7485167,"name":"FedEx Office Print & Ship Center","postal_code":"28262","review_count":9,"stars":3.5,"state":"NC"}
{"address":"855 S Grand Central Pkwy","attributes":{"BikeParking":"False","BusinessAcceptsCreditCards":"True","BusinessParking":"{'garage': False, 'street': False, 'validated': False, 'lot': False, 'valet': False}","RestaurantsPriceRange2":"3"},"business_id":"bierVTEi44nJtFVQ01N-yQ","categories":"Accessories, Shopping, Fashion, Men's Clothing, Women's Clothing","city":"Las Vegas","hours":{"Friday":"9:0-21:0","Monday":"9:0-21:0","Saturday":"9:0-21:0","Sunday":"9:0-20:0","Thursday":"9:0-21:0","Tuesday":"9:0-21:0","Wednesday":"9:0-21:0"},"is_open":1,"latitude":36.1630111,"longitude":-115.1583136,"name":"Lacoste Outlet Las Vegas","postal_code":"89106","review_count":11,"stars":3.5,"state":"NV"}
{"address":"3463 Sheppard Ave E","attributes":{"BusinessParking":"{'garage': False, 'street': False, 'validated': False, 'lot': True, 'valet': False}","RestaurantsDelivery":"True","RestaurantsPriceRange2":"2","WheelchairAccessible":"True"},"business_id":"y2CeHDAglfBz26nNxvwwow","categories":"Flowers & Gifts, Shopping, Florists","city":"Scarborough","hours":{"Friday":"9:0-18:0","Monday":"0:0-0:0","Saturday":"9:0-17:0","Thursday":"9:0-18:0","Tuesday":"9:0-18:0","Wednesday":"9:0-18:0"},"is_open":1,"latitude":43.7790468,"longitude":-79.3047189,"name":"Helen Blakey Flowers","postal_code":"M1T 3K5","review_count":7,"stars":4.5,"state":"ON"}
{"address":"7175 W Lake Mead Blvd, Ste 168","attributes":{"AcceptsInsurance":"False","BikeParking":"False","BusinessAcceptsCreditCards":"True","BusinessParking":"None","ByAppointmentOnly":"False","RestaurantsPriceRange2":"3","WheelchairAccessible":"True"},"business_id":"bevuR6hYNuXCh9W0goe2kA","categories":"Eyelash Service, Hair Salons, Skin Care, Doctors, Laser Hair Removal, Health & Medical, Beauty & Spas, Medical Spas, Tattoo Removal, Hair Removal","city":"Las Vegas","hours":{"Friday":"10:0-17:0","Monday":"10:0-17:0","Thursday":"10:0-17:0","Tuesday":"10:0-17:0","Wednesday":"10:0-17:0"},"is_open":0,"latitude":36.195266,"longitude":-115.2481396,"name":"MD Laser Med Spa","postal_code":"89128","review_count":33,"stars":3.5,"state":"NV"}
{"address":"415 Gettysburg St, Ste 1","business_id":"UyZqOcWxShRRtACCkZFkpQ","categories":"Pet Sitting, Pets, Pet Stores, Pet Services, Pet Groomers","city":"Pittsburgh","hours":{"Friday":"10:0-19:0","Monday":"0:0-0:0","Saturday":"10:0-16:0","Sunday":"11:0-14:0","Thursday":"10:0-19:0","Tuesday":"10:0-19:0","Wednesday":"10:0-19:0"},"is_open":1,"latitude":40.4499755,"longitude":-79.9148756,"name":"Local Pet","postal_code":"15206","review_count":3,"stars":5.0,"state":"PA"}
{"address":"3503 S Mercy Rd","attributes":{"AcceptsInsurance":"True","BusinessAcceptsCreditCards":"True","ByAppointmentOnly":"True"},"business_id":"1TLZtAkDMnCvTyE4wmGWYg","categories":"Family Practice, Health & Medical, Internal Medicine, Doctors","city":"Gilbert","hours":{"Friday":"7:0-17:0","Monday":"7:0-17:0","Thursday":"7:0-17:0","Tuesday":"7:0-17:0","Wednesday":"7:0-17:0"},"is_open":1,"latitude":33.285412,"longitude":-111.748199,"name":"Ocotillo Internal Medicine Associates","postal_code":"85297","review_count":20,"stars":3.5,"state":"AZ"}
{"address":"7625 E Redfield Rd, Ste 400","attributes":{"BusinessAcceptsCreditCards":"True","BusinessParking":"{'garage': False, 'street': False, 'validated': False, 'lot': False, 'valet': False}","ByAppointmentOnly":"False"},"business_id":"5ZgMwaMPLV4EB71KtLg7EQ","categories":"Batting Cages, Active Life","city":"Scottsdale","hours":{"Friday":"15:0-21:0","Monday":"15:0-21:0","Saturday":"9:0-15:0","Sunday":"11:0-17:0","Thursday":"15:0-21:0","Tuesday":"15:0-21:0","Wednesday":"15:0-21:0"},"is_open":1,"latitude":33.6126331568,"longitude":-111.9161430503,"name":"Maximum Performance Batting Cages & Training Center","postal_code":"85260","review_count":3,"stars":5.0,"state":"AZ"}
{"address":"","attributes":{"BusinessAcceptsCreditCards":"True"},"business_id":"Ar7b3_R0OBrSIbRmGvhWwg","categories":"Cabinetry, Home Services, Flooring, Self Storage, Painters, Local Services, Contractors, Home Organization","city":"Charlotte","hours":{"Friday":"8:0-18:0","Monday":"8:0-18:0","Thursday":"8:0-18:0","Tuesday":"8:0-18:0","Wednesday":"8:0-18:0"},"is_open":1,"latitude":35.2326781,"longitude":-80.8460822,"name":"Garage Experts of Charlotte","postal_code":"28202","review_count":3,"stars":3.5,"state":"NC"}
{"address":"688 Gerrard Street E","attributes":{"Alcohol":"u'beer_and_wine'","Ambience":"{'romantic': False, 'intimate': False, 'classy': False, 'hipster': False, 'divey': False, 'touristy': False, 'trendy': False, 'upscale': False, 'casual': True}","BikeParking":"True","BusinessParking":"{'garage': False, 'street': True, 'validated': False, 'lot': False, 'valet': False}","Caters":"False","GoodForKids":"True","GoodForMeal":"{'dessert': False, 'latenight': False, 'lunch': True, 'dinner': True, 'brunch': False, 'breakfast': False}","HasTV":"True","NoiseLevel":"u'average'","OutdoorSeating":"False","RestaurantsAttire":"u'casual'","RestaurantsDelivery":"False","RestaurantsGoodForGroups":"True","RestaurantsPriceRange2":"1","RestaurantsReservations":"False","RestaurantsTableService":"True","RestaurantsTakeOut":"True","WiFi":"u'no'"},"business_id":"0QjROMVW9ACKjhSEfHqNCQ","categories":"Vietnamese, Restaurants","city":"Toronto","hours":{"Friday":"11:0-22:0","Monday":"11:0-22:0","Saturday":"11:0-22:0","Sunday":"11:0-22:0","Thursday":"11:0-22:0","Tuesday":"11:0-22:0","Wednesday":"12:0-22:0"},"is_open":1,"latitude":43.6663763388,"longitude":-79.3487726589,"name":"Mi Mi Restaurant","postal_code":"M4M 1Y3","review_count":116,"stars":4.0,"state":"ON"}
{"address":"510 Coronation Dr. Unit #18, Unit 18","attributes":{"WheelchairAccessible":"True"},"business_id":"OT-8IUWo_2M-rHddjzz_Cg","categories":"Event Planning & Services, Photo Booth Rentals, Venues & Event Spaces, DJs, Party & Event Planning, Party Supplies","city":"Toronto","hours":{"Monday":"9:0-17:0"},"is_open":1,"latitude":43.7652657335,"longitude":-79.1669769712,"name":"Equipment Sales and Long Term Rentals - Redline Promotions","postal_code":"M1E 4X6","review_count":3,"stars":1.5,"state":"ON"}
{"address":"143 Sheppard Avenue W","attributes":{"BikeParking":"True","BusinessParking":"{'garage': False, 'street': False, 'validated': False, 'lot': True, 'valet': False}","ByAppointmentOnly":"True","RestaurantsPriceRange2":"1"},"business_id":"umDBj-8WUNkNBODa6P0G-Q","categories":"Health & Medical, Massage Therapy, Eyelash Service, Waxing, Beauty & Spas, Hair Removal","city":"Toronto","hours":{"Friday":"10:0-20:0","Monday":"0:0-0:0","Saturday":"11:0-19:0","Sunday":"11:0-19:0","Thursday":"10:0-20:0","Tuesday":"10:0-20:0","Wednesday":"10:0-20:0"},"is_open":1,"latitude":43.7596753,"longitude":-79.4181223,"name":"Natural Scents","postal_code":"M2N 1M7","review_count":8,"stars":4.5,"state":"ON"}
{"address":"198 Spadina Avenue","attributes":{"GoodForKids":"True"},"business_id":"rZSS1JzizAKTIWXxU1g_hA","categories":"Fitness & Instruction, Martial Arts, Active Life","city":"Toronto","hours":{"Friday":"17:0-21:0","Monday":"18:0-20:0","Saturday":"10:0-17:0","Thursday":"17:0-21:0","Tuesday":"17:0-21:0","Wednesday":"17:0-21:0"},"is_open":0,"latitude":43.6502316,"longitude":-79.3972233,"name":"Shaolin Temple Quanfa Institute","postal_code":"M5T 2C2","review_count":3,"stars":5.0,"state":"ON"}
{"address":"3663 Las Vegas Blvd S, Ste 454","attributes":{"Alcohol":"u'full_bar'","Ambience":"{'touristy': False, 'hipster': False, 'romantic': False, 'divey': False, 'intimate': False, 'trendy': False, 'upscale': False, 'classy': False, 'casual': False}","BikeParking":"False","BusinessAcceptsCreditCards":"True","BusinessParking":"{'garage': True, 'street': False, 'validated': False, 'lot': False, 'valet': True}","GoodForKids":"False","HasTV":"True","Music":"{'dj': False, 'background_music': False, 'no_music': False, 'jukebox': False, 'live': False, 'video': False, 'karaoke': False}","OutdoorSeating":"False","RestaurantsGoodForGroups":"True","RestaurantsPriceRange2":"2","RestaurantsReservations":"False","WheelchairAccessible":"True"},"business_id":"OLciBerMDmD_WYzfYbmkqA","categories":"Nightlife, Arts & Entertainment, Bars, Lounges, Ticket Sales, Performing Arts","city":"Las Vegas","hours":{"Friday":"14:0-23:30","Monday":"14:0-23:30","Saturday":"14:0-23:30","Sunday":"14:0-21:0","Thursday":"14:0-23:30","Tuesday":"14:0-23:30","Wednesday":"14:0-23:30"},"is_open":1,"latitude":36.1107987156,"longitude":-115.1725074446,"name":"The Lounge at Saxe Theater","postal_code":"89109","review_count":4,"stars":3.5,"state":"NV"}
{"address":"4005 W Reno Ave, Ste C","attributes":{"BusinessAcceptsCreditCards":"True"},"business_id":"FrMRHhzT-qUzv1-Nh1IOjQ","categories":"Hotels & Travel, Party Bus Rentals, Limos, Event Planning & Services, Transportation","city":"Las Vegas","hours":{"Friday":"8:0-20:0","Monday":"8:0-20:0","Saturday":"10:0-20:0","Sunday":"10:0-20:0","Thursday":"8:0-20:0","Tuesday":"8:0-20:0","Wednesday":"8:0-20:0"},"is_open":1,"latitude":36.0968783,"longitude":-115.1928992,"name":"Sin City Party Buses","postal_code":"89118","review_count":18,"stars":4.0,"state":"NV"}
{"address":"287 College Street","business_id":"53Q2c9qMLEjD9r1wMn6Q8g","categories":"Shopping, Computers","city":"Toronto","is_open":1,"latitude":43.6576212,"longitude":-79.4008849,"name":"CJ Laptop Service Centre","postal_code":"M5T 1S2","review_count":4,"stars":4.0,"state":"ON"}
{"address":"13840 Ballantyne Corporate Pl, Ste 175","attributes":{"BusinessAcceptsCreditCards":"True","ByAppointmentOnly":"False","WiFi":"u'no'"},"business_id":"iAtCgs1XXPeHVrftHOv1dQ","categories":"Caterers, Event Planning & Services","city":"Charlotte","hours":{"Friday":"7:30-14:30","Monday":"7:30-14:30","Thursday":"7:30-14:30","Tuesday":"7:30-14:30","Wednesday":"7:30-14:30"},"is_open":1,"latitude":35.0628528,"longitude":-80.8549901,"name":"On the Green Deli & Catering","postal_code":"28277","review_count":10,"stars":3.5,"state":"NC"}
{"address":"2136 Central Ave","attributes":{"BikeParking":"True","BusinessParking":"{'garage': False, 'street': False, 'validated': False, 'lot': True, 'valet': False}","GoodForKids":"True"},"business_id":"gsWnxCMru_x4-4izu3kiXA","categories":"Parks, Active Life","city":"Charlotte","is_open":1,"latitude":35.21776,"longitude":-80.8049131,"name":"Veterans Park","postal_code":"28205","review_count":10,"stars":4.5,"state":"NC"}
{"address":"515 4th Avenue SW","attributes":{"DietaryRestrictions":"{'dairy-free': False, 'gluten-free': False, 'vegan': False, 'kosher': False, 'halal': False, 'soy-free': False, 'vegetarian': True}","OutdoorSeating":"True","RestaurantsDelivery":"True","RestaurantsReservations":"True","RestaurantsTableService":"True","RestaurantsTakeOut":"True","WheelchairAccessible":"True","WiFi":"u'free'"},"business_id":"RrapAhd8ZxCj-iue7fu9FA","categories":"Restaurants, Buffets, Indian, Halal","city":"Calgary","hours":{"Friday":"17:0-22:0","Monday":"17:0-22:0","Saturday":"17:0-22:0","Thursday":"17:0-22:0","Tuesday":"17:0-22:0","Wednesday":"17:0-22:0"},"is_open":1,"latitude":51.0494068,"longitude":-114.072656,"name":"Ganga Restaurant","postal_code":"T2P 0J8","review_count":3,"stars":1.5,"state":"AB"}
{"address":"16726 Pearl Rd","attributes":{"Alcohol":"u'none'","Ambience":"{'touristy': False, 'hipster': False, 'romantic': False, 'divey': False, 'intimate': False, 'trendy': False, 'upscale': False, 'classy': False, 'casual': False}","BikeParking":"True","BusinessAcceptsCreditCards":"True","BusinessParking":"{'garage': False, 'street': False, 'validated': False, 'lot': False, 'valet': False}","GoodForKids":"True","GoodForMeal":"{'dessert': False, 'latenight': False, 'lunch': False, 'dinner': False, 'brunch': True, 'breakfast': True}","HasTV":"True","OutdoorSeating":"False","RestaurantsAttire":"'casual'","RestaurantsDelivery":"False","RestaurantsGoodForGroups":"True","RestaurantsPriceRange2":"1","RestaurantsReservations":"False","RestaurantsTakeOut":"True"},"business_id":"7j0kor_fkeYhyEpXh4OpnQ","categories":"Breakfast & Brunch, Restaurants, American (Traditional), Salad","city":"Strongsville","hours":{"Friday":"6:30-15:0","Monday":"6:30-15:0","Saturday":"6:30-15:0","Sunday":"6:30-15:0","Thursday":"6:30-15:0","Tuesday":"6:30-15:0","Wednesday":"6:30-15:0"},"is_open":1,"latitude":41.295689,"longitude":-81.835722,"name":"Scramblers - Strongsville","postal_code":"44136","review_count":81,"stars":3.5,"state":"OH"}
{"address":"11211 Lawyers Rd, Ste 116","attributes":{"BikeParking":"True","BusinessAcceptsCreditCards":"False","BusinessParking":"{'garage': False, 'street': False, 'validated': False, 'lot': True, 'valet': False}","ByAppointmentOnly":"False","RestaurantsPriceRange2":"2"},"business_id":"wUG9y_Yoq7Mfxz_9OdjI8Q","categories":"Beauty & Spas, Barbers","city":"Mint Hill","hours":{"Friday":"7:0-17:30","Saturday":"7:0-13:0","Thursday":"7:0-17:30","Tuesday":"7:0-17:30","Wednesday":"7:0-17:30"},"is_open":1,"latitude":35.1745683,"longitude":-80.6575973,"name":"Mint Hill Barber Shop","postal_code":"28227","review_count":14,"stars":4.5,"state":"NC"}
{"address":"4086 Ogden Road SE","attributes":{"ByAppointmentOnly":"True"},"business_id":"PRRHaB4zge1cqskFWvQ9ZQ","categories":"Water Heater Installation/Repair, Heating & Air Conditioning/HVAC, Home Services","city":"Calgary","hours":{"Friday":"6:0-6:0","Monday":"6:0-6:0","Saturday":"6:0-6:0","Sunday":"6:0-6:0","Thursday":"6:0-6:0","Tuesday":"6:0-6:0","Wednesday":"6:0-6:0"},"is_open":1,"latitude":51.018603,"longitude":-114.021134,"name":"Action Furnace","postal_code":"T2G 4P7","review_count":7,"stars":3.0,"state":"AB"}
{"address":"","attributes":{"BusinessAcceptsCreditCards":"True","RestaurantsDelivery":"False","RestaurantsReservations":"False","RestaurantsTakeOut":"True"},"business_id":"OWkS1FXNJbozn-qPg3LWxg","categories":"Food, Food Trucks, Restaurants, Pizza","city":"Las Vegas","hours":{"Friday":"18:0-0:0"},"is_open":1,"latitude":36.128561,"longitude":-115.1711298,"name":"Mama Napoli Pizza","postal_code":"89109","review_count":11,"stars":4.5,"state":"NV"}
{"address":"4040 Steeles Avenue W, Suite 8","attributes":{"BikeParking":"False","BusinessParking":"{'garage': False, 'street': False, 'validated': False, 'lot': True, 'valet': False}","ByAppointmentOnly":"True","RestaurantsPriceRange2":"3","WheelchairAccessible":"False"},"business_id":"Bom8MY07_YloY1R2EXrpdA","categories":"Bridal, Shopping","city":"Woodbridge","hours":{"Friday":"10:0-18:0","Monday":"10:0-18:0","Saturday":"10:0-18:0","Sunday":"12:0-16:0","Thursday":"10:0-21:0","Tuesday":"10:0-21:0","Wednesday":"10:0-18:0"},"is_open":1,"latitude":43.7699285501,"longitude":-79.5514584705,"name":"Mona Richie Bridal","postal_code":"L4L 4Y5","review_count":24,"stars":2.5,"state":"ON"}
{"address":"","attributes":{"BusinessAcceptsBitcoin":"False","BusinessAcceptsCreditCards":"True","ByAppointmentOnly":"False"},"business_id":"UiyjUa8CQmygujhe-ZYlsw","categories":"Home Services, Movers","city":"Champaign","hours":{"Friday":"8:0-20:0","Monday":"8:0-20:0","Saturday":"8:0-20:0","Sunday":"8:0-20:0","Thursday":"8:0-20:0","Tuesday":"8:0-20:0","Wednesday":"8:0-20:0"},"is_open":1,"latitude":40.1270299607,"longitude":-88.2416988672,"name":"Movers 4 Less Inc","postal_code":"61822","review_count":15,"stars":3.0,"state":"IL"}
{"address":"2706 E University Dr","attributes":{"Alcohol":"u'none'","Ambience":"{'touristy': False, 'hipster': False, 'romantic': False, 'divey': False, 'intimate': False, 'trendy': False, 'upscale': False, 'classy': False, 'casual': False}","BikeParking":"True","BusinessAcceptsCreditCards":"True","BusinessParking":"{'garage': False, 'street': False, 'validated': False, 'lot': False, 'valet': False}","Caters":"False","GoodForKids":"True","GoodForMeal":"{'dessert': False, 'latenight': False, 'lunch': True, 'dinner': True, 'brunch': False, 'breakfast': False}","HasTV":"True","NoiseLevel":"u'quiet'","OutdoorSeating":"False","RestaurantsAttire":"u'casual'","RestaurantsDelivery":"True","RestaurantsGoodForGroups":"True","RestaurantsPriceRange2":"1","RestaurantsReservations":"False","RestaurantsTakeOut":"True","WiFi":"u'no'"},"business_id":"j9bWpCRwpDVfwVT_V85qeA","categories":"Food, Ethnic Food, Specialty Food, Restaurants, Thai","city":"Mesa","hours":{"Friday":"11:0-21:30","Monday":"11:0-21:0","Saturday":"11:0-21:30","Sunday":"12:0-21:0","Thursday":"11:0-21:0","Tuesday":"11:0-21:0","Wednesday":"11:0-21:0"},"is_open":1,"latitude":33.4237052,"longitude":-111.7728895,"name":"Papaya Thai","postal_code":"85213","review_count":130,"stars":2.5,"state":"AZ"}
{"address":"3421 Rue Saint-Denis","attributes":{"Alcohol":"'none'","Ambience":"{'romantic': False, 'intimate': False, 'classy': False, 'hipster': False, 'touristy': False, 'trendy': False, 'upscale': False, 'casual': False}","GoodForKids":"True","NoiseLevel":"u'quiet'","RestaurantsAttire":"u'casual'","RestaurantsGoodForGroups":"False","RestaurantsPriceRange2":"2","RestaurantsReservations":"False","RestaurantsTakeOut":"True"},"business_id":"6GHwgKNlvfIMUpFaxgBjUA","categories":"Sandwiches, Italian, Restaurants","city":"Montréal","hours":{"Friday":"9:0-17:0","Monday":"9:0-17:0","Thursday":"9:0-17:0","Tuesday":"9:0-17:0","Wednesday":"9:0-17:0"},"is_open":0,"latitude":45.517368812,"longitude":-73.5679399967,"name":"L'Artisan Piadineria","postal_code":"H2L 3L2","review_count":9,"stars":4.0,"state":"QC"}
{"address":"501 N Scottsdale Rd","business_id":"dee5uffullqnbI7VM0K7FA","categories":"Automotive, Car Dealers","city":"Scottsdale","hours":{"Friday":"9:0-18:0","Monday":"9:0-18:0","Saturday":"10:0-15:0","Thursday":"9:0-18:0","Tuesday":"9:0-18:0","Wednesday":"9:0-18:0"},"is_open":0,"latitude":33.4538421631,"longitude":-111.9260025024,"name":"Darroch Motorsports","postal_code":"85257","review_count":3,"stars":3.5,"state":"AZ"}
{"address":"3950 W Chandler Blvd","business_id":"bBhbxPjxDZSYVD-3tjUwnw","categories":"Home Services, Real Estate, Apartments","city":"Chandler","is_open":0,"latitude":33.306145,"longitude":-111.909383,"name":"Jefferson Chandler by Alliance","postal_code":"85226","review_count":10,"stars":3.0,"state":"AZ"}
{"address":"108 Petry Ct","attributes":{"BusinessAcceptsCreditCards":"True"},"business_id":"efdPLo00sOD-1Wf77hg5jQ","categories":"Shopping, Nurseries & Gardening, Tree Services, Home Services, Landscaping, Home & Garden, Lawn Services","city":"Champaign","hours":{"Friday":"8:0-19:0","Monday":"8:0-19:0","Saturday":"9:0-12:0","Thursday":"8:0-19:0","Tuesday":"8:0-19:0","Wednesday":"8:0-19:0"},"is_open":1,"latitude":40.137287,"longitude":-88.2384359,"name":"TruGreen Lawn Care","postal_code":"61822","review_count":13,"stars":2.0,"state":"IL"}
{"address":"4601 Rue Notre-Dame O","attributes":{"Ambience":"{'touristy': False, 'hipster': False, 'romantic': False, 'intimate': False, 'trendy': False, 'upscale': False, 'classy': False, 'casual': False}","BikeParking":"True","BusinessParking":"{'garage': False, 'street': False, 'validated': False, 'lot': False, 'valet': False}","GoodForKids":"True","GoodForMeal":"{'dessert': False, 'latenight': False, 'lunch': False, 'dinner': False, 'brunch': False, 'breakfast': False}","NoiseLevel":"u'quiet'","RestaurantsAttire":"u'casual'","RestaurantsGoodForGroups":"True","RestaurantsPriceRange2":"2","RestaurantsTableService":"True","RestaurantsTakeOut":"True","WiFi":"u'no'"},"business_id":"Ir_QIzs-4o9ElOtiGuxJrw","categories":"Mexican, Sandwiches, Restaurants, Breakfast & Brunch","city":"Montréal","hours":{"Friday":"12:0-20:0","Saturday":"10:0-17:0","Thursday":"12:0-20:0","Tuesday":"12:0-20:0","Wednesday":"12:0-20:0"},"is_open":0,"latitude":45.4736323,"longitude":-73.5881347,"name":"Torteria Lupita","postal_code":"H4C 1S5","review_count":19,"stars":4.0,"state":"QC"}
{"address":"100 Bloor St E","attributes":{"BikeParking":"True","BusinessParking":"{'garage': False, 'street': True, 'validated': False, 'lot': False, 'valet': False}","RestaurantsPriceRange2":"3","RestaurantsTakeOut":"True"},"business_id":"GtQPbazps0jt7_cJghfmsA","categories":"Food, Grocery","city":"Toronto","hours":{"Friday":"7:0-22:0","Monday":"7:0-22:0","Saturday":"7:0-20:0","Sunday":"7:0-20:0","Thursday":"7:0-22:0","Tuesday":"7:0-22:0","Wednesday":"7:0-22:0"},"is_open":1,"latitude":43.6709361,"longitude":-79.3846434,"name":"The Market by Longo's","postal_code":"M4W 1A7","review_count":41,"stars":2.5,"state":"ON"}
{"address":"590 N Alma School Rd","attributes":{"BusinessAcceptsCreditCards":"True","BusinessParking":"{'garage': False, 'street': False, 'validated': False, 'lot': False, 'valet': False}","ByAppointmentOnly":"False","RestaurantsPriceRange2":"2","WheelchairAccessible":"True","WiFi":"u'no'"},"business_id":"7drzQefNQrcf8pswAXcc-A","categories":"Beauty & Spas, Barbers","city":"Chandler","hours":{"Friday":"8:0-19:0","Monday":"8:0-19:0","Saturday":"8:0-17:0","Thursday":"8:0-19:0","Tuesday":"8:0-19:0","Wednesday":"8:0-19:0"},"is_open":1,"latitude":33.3116948,"longitude":-111.8600384,"name":"Paisano Barber Shop","postal_code":"85224","review_count":9,"stars":2.5,"state":"AZ"}
{"address":"804www.caballerolounge.com Rue Roy E","attributes":{"Alcohol":"u'full_bar'","Ambience":"{'romantic': False, 'intimate': False, 'classy': False, 'hipster': False, 'divey': False, 'touristy': False, 'trendy': False, 'upscale': False, 'casual': False}","BikeParking":"True","BusinessParking":"{'garage': False, 'street': True, 'validated': False, 'lot': False, 'valet': False}","GoodForKids":"True","GoodForMeal":"{'dessert': False, 'latenight': False, 'lunch': False, 'dinner': False, 'brunch': False, 'breakfast': False}","HasTV":"True","NoiseLevel":"u'average'","OutdoorSeating":"True","RestaurantsAttire":"u'casual'","RestaurantsDelivery":"False","RestaurantsGoodForGroups":"True","RestaurantsPriceRange2":"2","RestaurantsReservations":"True","RestaurantsTableService":"True","RestaurantsTakeOut":"True","WiFi":"u'free'"},"business_id":"0Y5Kzo8PWHTjk0tlfAKcDQ","categories":"Restaurants, Tapas/Small Plates","city":"Montréal","hours":{"Friday":"10:0-23:0","Saturday":"10:0-23:0","Sunday":"10:0-15:0","Thursday":"10:0-22:0","Tuesday":"10:0-22:0","Wednesday":"10:0-22:0"},"is_open":1,"latitude":45.5206987494,"longitude":-73.5726423331,"name":"Caballero","postal_code":"H2L 1E3","review_count":3,"stars":3.5,"state":"QC"}
{"address":"2710 W Thunderbird Rd","attributes":{"BikeParking":"True","BusinessAcceptsCreditCards":"True","BusinessParking":"{'garage': False, 'street': False, 'validated': False, 'lot': True, 'valet': False}","RestaurantsPriceRange2":"2"},"business_id":"ER7zYKFy2YZVovBpElsU4w","categories":"Shopping, Fashion, Men's Clothing, Shoe Stores","city":"Phoenix","is_open":1,"latitude":33.612317,"longitude":-112.119295,"name":"Cowtown Boots","postal_code":"85053","review_count":30,"stars":3.0,"state":"AZ"}
{"address":"3213 W Charleston Blvd, Ste 105","attributes":{"AcceptsInsurance":"True","BusinessAcceptsCreditCards":"True","ByAppointmentOnly":"True","WiFi":"u'free'"},"business_id":"w-ZTkkXefxTEHlgpKA55mQ","categories":"Occupational Therapy, Health & Medical, Massage Therapy, Physical Therapy, Speech Therapists","city":"Las Vegas","hours":{"Friday":"8:0-18:0","Monday":"0:0-0:0","Saturday":"9:0-16:0","Thursday":"8:0-18:0","Tuesday":"9:0-13:0","Wednesday":"8:0-18:0"},"is_open":1,"latitude":36.1583452,"longitude":-115.184979,"name":"Rehab Directives SPOT 4 TOTS","postal_code":"89102","review_count":6,"stars":3.5,"state":"NV"}
